{
    "gpsImageData": {
        "01": {
            "location": "Prague",
            "img_path": "/sattelite_imgs/prague.jpg",
            "latitude": 50.0831,
            "longitude": 14.4213
        },
        "02": {
            "location": "Rome",
            "img_path": "/sattelite_imgs/rome.jpg",
            "latitude": 41.9028,
            "longitude": 12.4964
        },
        "03": {
            "location": "Tokyo",
            "img_path": "/sattelite_imgs/tokyo.jpg",
            "latitude": 35.6823,
            "longitude": 139.7585
        },
        "04": {
            "location": "Bangkok",
            "img_path": "/sattelite_imgs/bangkok.jpg",
            "latitude": 13.7563,
            "longitude": 100.5018
        },
        "05": {
            "location": "Seoul",
            "img_path": "/sattelite_imgs/seoul.jpg",
            "latitude": 37.5665,
            "longitude": 126.978
        },
        "06": {
            "location": "Melbourne",
            "img_path": "/sattelite_imgs/melbourne.jpg",
            "latitude": -37.8136,
            "longitude": 144.9631
        },
        "07": {
            "location": "Berlin",
            "img_path": "/sattelite_imgs/berlin.jpg",
            "latitude": 52.52,
            "longitude": 13.405
        },
        "08": {
            "location": "Paris",
            "img_path": "/sattelite_imgs/paris.jpg",
            "latitude": 48.8566,
            "longitude": 2.3522
        },
        "09": {
            "location": "London",
            "img_path": "/sattelite_imgs/london.jpg",
            "latitude": 51.5074,
            "longitude": 0.1278
        },
        "10": {
            "location": "Singapore",
            "img_path": "/sattelite_imgs/singapore.jpg",
            "latitude": 1.3521,
            "longitude": 103.8198
        }
    }
}
